[
    {
        "sl": "1",
        "village_code": "197680",
        "village_name": "Bhagwanpur",
        "latitude": "26.16066197",
        "longitude": "83.78595737"
    },
    {
        "sl": "2",
        "village_code": "197681",
        "village_name": "Sonadih",
        "latitude": "26.16551821",
        "longitude": "83.80428089"
    },
    {
        "sl": "3",
        "village_code": "197682",
        "village_name": "Doth",
        "latitude": "26.15411133",
        "longitude": "83.79590782"
    },
    {
        "sl": "4",
        "village_code": "197683",
        "village_name": "Bhind Kund",
        "latitude": "26.14713938",
        "longitude": "83.80656062"
    },
    {
        "sl": "5",
        "village_code": "197684",
        "village_name": "Gauri Lal Ghosa",
        "latitude": "26.15273714",
        "longitude": "83.81403423"
    },
    {
        "sl": "6",
        "village_code": "197685",
        "village_name": "Autroul Chak Milkan",
        "latitude": "26.14650959",
        "longitude": "83.82249092"
    },
    {
        "sl": "7",
        "village_code": "197686",
        "village_name": "Chak Milkan",
        "latitude": "26.15261369",
        "longitude": "83.82155744"
    },
    {
        "sl": "8",
        "village_code": "197687",
        "village_name": "Indauli Zamin Indalli",
        "latitude": "26.1548546",
        "longitude": "83.83121994"
    },
    {
        "sl": "9",
        "village_code": "197688",
        "village_name": "Sikroor Chadour",
        "latitude": "26.14496899",
        "longitude": "83.83161727"
    },
    {
        "sl": "10",
        "village_code": "197689",
        "village_name": "Tenduhari",
        "latitude": "26.13559536",
        "longitude": "83.82292328"
    },
    {
        "sl": "11",
        "village_code": "197690",
        "village_name": "Padri",
        "latitude": "26.13899412",
        "longitude": "83.80922895"
    },
    {
        "sl": "12",
        "village_code": "197691",
        "village_name": "Tangunia",
        "latitude": "26.17669839",
        "longitude": "83.81676405"
    },
    {
        "sl": "13",
        "village_code": "197692",
        "village_name": "Arazi Guloura",
        "latitude": "26.18549463",
        "longitude": "83.81974757"
    },
    {
        "sl": "14",
        "village_code": "197693",
        "village_name": "Diyara Sir Sarkar",
        "latitude": "26.18206665",
        "longitude": "83.84344556"
    },
    {
        "sl": "15",
        "village_code": "197694",
        "village_name": "Chainpur Guloura",
        "latitude": "26.1762916",
        "longitude": "83.82860552"
    },
    {
        "sl": "16",
        "village_code": "197695",
        "village_name": "Buddhipur",
        "latitude": "26.16488145",
        "longitude": "83.82104305"
    },
    {
        "sl": "17",
        "village_code": "197696",
        "village_name": "Chandayar Kala",
        "latitude": "26.16255185",
        "longitude": "83.83106948"
    },
    {
        "sl": "18",
        "village_code": "197697",
        "village_name": "Chandayar Walipur",
        "latitude": "26.16891814",
        "longitude": "83.83670906"
    },
    {
        "sl": "19",
        "village_code": "197698",
        "village_name": "Khaira Bas",
        "latitude": "26.16913993",
        "longitude": "83.85641167"
    },
    {
        "sl": "20",
        "village_code": "197699",
        "village_name": "Turtipar",
        "latitude": "26.1522767",
        "longitude": "83.8599941"
    },
    {
        "sl": "21",
        "village_code": "197700",
        "village_name": "Chandan Patti Nirbhaipur",
        "latitude": "26.14328019",
        "longitude": "83.85891667"
    },
    {
        "sl": "22",
        "village_code": "197701",
        "village_name": "Mubarakpur",
        "latitude": "26.14490393",
        "longitude": "83.84554379"
    },
    {
        "sl": "23",
        "village_code": "197702",
        "village_name": "Kundail Shah",
        "latitude": "26.13874731",
        "longitude": "83.83853581"
    },
    {
        "sl": "24",
        "village_code": "197703",
        "village_name": "Bahorwa Khurd",
        "latitude": "26.13380229",
        "longitude": "83.84114032"
    },
    {
        "sl": "25",
        "village_code": "197704",
        "village_name": "Banspar Bahorwa",
        "latitude": "26.13511135",
        "longitude": "83.85146946"
    },
    {
        "sl": "26",
        "village_code": "197705",
        "village_name": "Tirnai Khurd",
        "latitude": "26.12748907",
        "longitude": "83.85154894"
    },
    {
        "sl": "27",
        "village_code": "197706",
        "village_name": "Majhowa",
        "latitude": "26.12890657",
        "longitude": "83.86282179"
    },
    {
        "sl": "28",
        "village_code": "197707",
        "village_name": "Ubhanv",
        "latitude": "26.13405424",
        "longitude": "83.86400619"
    },
    {
        "sl": "29",
        "village_code": "197708",
        "village_name": "Shahunpur",
        "latitude": "26.13875226",
        "longitude": "83.86299549"
    },
    {
        "sl": "30",
        "village_code": "197709",
        "village_name": "Majhwalia",
        "latitude": "26.13401612",
        "longitude": "83.8741336"
    },
    {
        "sl": "31",
        "village_code": "197710",
        "village_name": "Koria Baijnath",
        "latitude": "26.13865364",
        "longitude": "83.88043776"
    },
    {
        "sl": "32",
        "village_code": "197711",
        "village_name": "Patnari Kirtupur",
        "latitude": "26.12861428",
        "longitude": "83.81609503"
    },
    {
        "sl": "33",
        "village_code": "197712",
        "village_name": "Bhadaura Tarchhapar",
        "latitude": "26.12138166",
        "longitude": "83.83023568"
    },
    {
        "sl": "34",
        "village_code": "197713",
        "village_name": "Bibipur",
        "latitude": "26.12098027",
        "longitude": "83.83711946"
    },
    {
        "sl": "35",
        "village_code": "197714",
        "village_name": "Kundail Niyamat Ali",
        "latitude": "26.12922025",
        "longitude": "83.83727609"
    },
    {
        "sl": "36",
        "village_code": "197715",
        "village_name": "Rampur Chandayar",
        "latitude": "26.12777101",
        "longitude": "83.84540623"
    },
    {
        "sl": "37",
        "village_code": "197716",
        "village_name": "Imilia",
        "latitude": "26.12280184",
        "longitude": "83.85048068"
    },
    {
        "sl": "38",
        "village_code": "197717",
        "village_name": "Chakia Imilia",
        "latitude": "26.125124",
        "longitude": "83.85764741"
    },
    {
        "sl": "39",
        "village_code": "197718",
        "village_name": "Bithua",
        "latitude": "26.11297744",
        "longitude": "83.85154582"
    },
    {
        "sl": "40",
        "village_code": "197719",
        "village_name": "Siyar",
        "latitude": "26.11077191",
        "longitude": "83.8382787"
    },
    {
        "sl": "41",
        "village_code": "197720",
        "village_name": "Kushha Bhand",
        "latitude": "26.11533668",
        "longitude": "83.83197195"
    },
    {
        "sl": "42",
        "village_code": "197721",
        "village_name": "Tendua",
        "latitude": "26.10958871",
        "longitude": "83.82667214"
    },
    {
        "sl": "43",
        "village_code": "197722",
        "village_name": "Akhop",
        "latitude": "26.11882959",
        "longitude": "83.81032942"
    },
    {
        "sl": "44",
        "village_code": "197723",
        "village_name": "Sasna Bahadurpur",
        "latitude": "26.10458702",
        "longitude": "83.80740551"
    },
    {
        "sl": "45",
        "village_code": "197724",
        "village_name": "Bara",
        "latitude": "26.09784226",
        "longitude": "83.78847796"
    },
    {
        "sl": "46",
        "village_code": "197725",
        "village_name": "Mampur Mahdeva",
        "latitude": "26.0949624",
        "longitude": "83.77431171"
    },
    {
        "sl": "47",
        "village_code": "197726",
        "village_name": "Saryan",
        "latitude": "26.08822046",
        "longitude": "83.78299696"
    },
    {
        "sl": "48",
        "village_code": "197727",
        "village_name": "Sumha",
        "latitude": "26.08172528",
        "longitude": "83.79017377"
    },
    {
        "sl": "49",
        "village_code": "197728",
        "village_name": "Malera",
        "latitude": "26.09017148",
        "longitude": "83.79497576"
    },
    {
        "sl": "50",
        "village_code": "197729",
        "village_name": "Maleri",
        "latitude": "26.09419187",
        "longitude": "83.80073273"
    },
    {
        "sl": "51",
        "village_code": "197730",
        "village_name": "Bankara Said Bukhara",
        "latitude": "26.08349947",
        "longitude": "83.80505546"
    },
    {
        "sl": "52",
        "village_code": "197731",
        "village_name": "Anshupur",
        "latitude": "26.08590589",
        "longitude": "83.81507033"
    },
    {
        "sl": "53",
        "village_code": "197732",
        "village_name": "Paharpur",
        "latitude": "26.08863822",
        "longitude": "83.81926051"
    },
    {
        "sl": "54",
        "village_code": "197733",
        "village_name": "Deodharia M. Premrajsingh",
        "latitude": "26.07713511",
        "longitude": "83.72543482"
    },
    {
        "sl": "55",
        "village_code": "197734",
        "village_name": "Khunta",
        "latitude": "26.07785968",
        "longitude": "83.73388916"
    },
    {
        "sl": "56",
        "village_code": "197735",
        "village_name": "Sasnadih",
        "latitude": "26.07257375",
        "longitude": "83.74177278"
    },
    {
        "sl": "57",
        "village_code": "197736",
        "village_name": "Kuchehra",
        "latitude": "26.07384421",
        "longitude": "83.74760544"
    },
    {
        "sl": "58",
        "village_code": "197737",
        "village_name": "Bahorwa",
        "latitude": "26.07940379",
        "longitude": "83.74286276"
    },
    {
        "sl": "59",
        "village_code": "197738",
        "village_name": "Katya",
        "latitude": "26.08439054",
        "longitude": "83.74810759"
    },
    {
        "sl": "60",
        "village_code": "197739",
        "village_name": "Mohammadpur",
        "latitude": "26.07926755",
        "longitude": "83.75676864"
    },
    {
        "sl": "61",
        "village_code": "197740",
        "village_name": "Ismailpur Dhadhila",
        "latitude": "26.0876081",
        "longitude": "83.76223257"
    },
    {
        "sl": "62",
        "village_code": "197741",
        "village_name": "Ahirupur",
        "latitude": "26.07685483",
        "longitude": "83.76547887"
    },
    {
        "sl": "63",
        "village_code": "197742",
        "village_name": "Gopalpur",
        "latitude": "26.06900258",
        "longitude": "83.77125428"
    },
    {
        "sl": "64",
        "village_code": "197743",
        "village_name": "Udhran",
        "latitude": "26.0689858",
        "longitude": "83.76316806"
    },
    {
        "sl": "65",
        "village_code": "197744",
        "village_name": "Ismailpur Udhran",
        "latitude": "26.06422038",
        "longitude": "83.7605744"
    },
    {
        "sl": "66",
        "village_code": "197745",
        "village_name": "Inupur",
        "latitude": "26.07222975",
        "longitude": "83.75229425"
    },
    {
        "sl": "67",
        "village_code": "197746",
        "village_name": "Kushha Rasidpur",
        "latitude": "26.06341662",
        "longitude": "83.74877889"
    },
    {
        "sl": "68",
        "village_code": "197747",
        "village_name": "Rampur",
        "latitude": "26.05905324",
        "longitude": "83.76208808"
    },
    {
        "sl": "69",
        "village_code": "197748",
        "village_name": "Nathna",
        "latitude": "26.07040747",
        "longitude": "83.69859095"
    },
    {
        "sl": "70",
        "village_code": "197749",
        "village_name": "Gaziapur",
        "latitude": "26.07588961",
        "longitude": "83.69756239"
    },
    {
        "sl": "71",
        "village_code": "197750",
        "village_name": "Kandhpur",
        "latitude": "26.07481956",
        "longitude": "83.70290681"
    },
    {
        "sl": "72",
        "village_code": "197751",
        "village_name": "Ibrahimpatti",
        "latitude": "26.08278541",
        "longitude": "83.70553913"
    },
    {
        "sl": "73",
        "village_code": "197752",
        "village_name": "Premraza Siyori",
        "latitude": "26.08707446",
        "longitude": "83.72038222"
    },
    {
        "sl": "74",
        "village_code": "197753",
        "village_name": "Paharpur Mu.Inderpur",
        "latitude": "26.07994088",
        "longitude": "83.71819038"
    },
    {
        "sl": "75",
        "village_code": "197754",
        "village_name": "Bhindlakhan Singha",
        "latitude": "26.07115638",
        "longitude": "83.71463833"
    },
    {
        "sl": "76",
        "village_code": "197755",
        "village_name": "Chak Habsapur",
        "latitude": "26.06469874",
        "longitude": "83.71767602"
    },
    {
        "sl": "77",
        "village_code": "197756",
        "village_name": "Gau Bojh",
        "latitude": "26.06163755",
        "longitude": "83.71425569"
    },
    {
        "sl": "78",
        "village_code": "197757",
        "village_name": "Saidpura",
        "latitude": "26.05746441",
        "longitude": "83.70924043"
    },
    {
        "sl": "79",
        "village_code": "197758",
        "village_name": "Deodharia T.Bhimpura",
        "latitude": "26.07099253",
        "longitude": "83.72567714"
    },
    {
        "sl": "80",
        "village_code": "197759",
        "village_name": "Sidhwali",
        "latitude": "26.06745958",
        "longitude": "83.73525764"
    },
    {
        "sl": "81",
        "village_code": "197760",
        "village_name": "Budhaipur",
        "latitude": "26.04618644",
        "longitude": "83.71947315"
    },
    {
        "sl": "82",
        "village_code": "197761",
        "village_name": "Sabdalpur",
        "latitude": "26.05645378",
        "longitude": "83.7203066"
    },
    {
        "sl": "83",
        "village_code": "197762",
        "village_name": "Shahpur Titiha",
        "latitude": "26.04975338",
        "longitude": "83.73025997"
    },
    {
        "sl": "84",
        "village_code": "197763",
        "village_name": "Satuhari",
        "latitude": "26.05006582",
        "longitude": "83.74860136"
    },
    {
        "sl": "85",
        "village_code": "197764",
        "village_name": "Bhitaha Gopalpur",
        "latitude": "26.0553786",
        "longitude": "83.7498608"
    },
    {
        "sl": "86",
        "village_code": "197765",
        "village_name": "Sodhanpur",
        "latitude": "26.05386365",
        "longitude": "83.75787712"
    },
    {
        "sl": "87",
        "village_code": "197766",
        "village_name": "Majhooa T.Amawe",
        "latitude": "26.04913852",
        "longitude": "83.76846378"
    },
    {
        "sl": "88",
        "village_code": "197767",
        "village_name": "Amawe",
        "latitude": "26.04756659",
        "longitude": "83.75820212"
    },
    {
        "sl": "89",
        "village_code": "197768",
        "village_name": "Harpur",
        "latitude": "26.04304077",
        "longitude": "83.76703235"
    },
    {
        "sl": "90",
        "village_code": "197769",
        "village_name": "Hasanpur",
        "latitude": "26.03830948",
        "longitude": "83.76457484"
    },
    {
        "sl": "91",
        "village_code": "197770",
        "village_name": "Jajauli",
        "latitude": "26.035832",
        "longitude": "83.75584284"
    },
    {
        "sl": "92",
        "village_code": "197771",
        "village_name": "Kiriharapur",
        "latitude": "26.03858522",
        "longitude": "83.74343197"
    },
    {
        "sl": "93",
        "village_code": "197772",
        "village_name": "Ratanpur",
        "latitude": "26.03130638",
        "longitude": "83.74698489"
    },
    {
        "sl": "94",
        "village_code": "197773",
        "village_name": "Kushha Brahman",
        "latitude": "26.02011542",
        "longitude": "83.74935669"
    },
    {
        "sl": "95",
        "village_code": "197774",
        "village_name": "Gaziapur",
        "latitude": "26.07293335",
        "longitude": "83.75600384"
    },
    {
        "sl": "96",
        "village_code": "197775",
        "village_name": "Semri",
        "latitude": "26.08077413",
        "longitude": "83.77401409"
    },
    {
        "sl": "97",
        "village_code": "197776",
        "village_name": "Govindpur Dugauli",
        "latitude": "26.07388522",
        "longitude": "83.78121485"
    },
    {
        "sl": "98",
        "village_code": "197777",
        "village_name": "Goppur Gobri",
        "latitude": "26.07097453",
        "longitude": "83.79473994"
    },
    {
        "sl": "99",
        "village_code": "197778",
        "village_name": "Bhujani",
        "latitude": "26.06454353",
        "longitude": "83.80624975"
    },
    {
        "sl": "100",
        "village_code": "197779",
        "village_name": "Lohta Pachdaura",
        "latitude": "26.06584232",
        "longitude": "83.78874714"
    },
    {
        "sl": "101",
        "village_code": "197780",
        "village_name": "Dafalpura",
        "latitude": "26.05873699",
        "longitude": "83.78676788"
    },
    {
        "sl": "102",
        "village_code": "197781",
        "village_name": "Pachma",
        "latitude": "26.05803394",
        "longitude": "83.7749659"
    },
    {
        "sl": "103",
        "village_code": "197782",
        "village_name": "Bigah Jamin Bigha",
        "latitude": "26.06680647",
        "longitude": "83.82829201"
    },
    {
        "sl": "104",
        "village_code": "197783",
        "village_name": "Fattapur",
        "latitude": "26.05913924",
        "longitude": "83.83429069"
    },
    {
        "sl": "105",
        "village_code": "197784",
        "village_name": "Dariapur",
        "latitude": "26.05423979",
        "longitude": "83.83504128"
    },
    {
        "sl": "106",
        "village_code": "197785",
        "village_name": "Chhitikiya",
        "latitude": "26.04719253",
        "longitude": "83.83647539"
    },
    {
        "sl": "107",
        "village_code": "197786",
        "village_name": "Shankarpur",
        "latitude": "26.04091982",
        "longitude": "83.83827399"
    },
    {
        "sl": "108",
        "village_code": "197787",
        "village_name": "Charouan",
        "latitude": "26.04504594",
        "longitude": "83.82251413"
    },
    {
        "sl": "109",
        "village_code": "197788",
        "village_name": "Tiwaripur",
        "latitude": "26.05642007",
        "longitude": "83.81468869"
    },
    {
        "sl": "110",
        "village_code": "197789",
        "village_name": "Kalyanpur",
        "latitude": "26.05545602",
        "longitude": "83.8075475"
    },
    {
        "sl": "111",
        "village_code": "197790",
        "village_name": "Farhada Urf Pura",
        "latitude": "26.05045935",
        "longitude": "83.8054843"
    },
    {
        "sl": "112",
        "village_code": "197791",
        "village_name": "Patoi",
        "latitude": "26.0490461",
        "longitude": "83.79770352"
    },
    {
        "sl": "113",
        "village_code": "197792",
        "village_name": "Kalwari",
        "latitude": "26.03983133",
        "longitude": "83.78577666"
    },
    {
        "sl": "114",
        "village_code": "197793",
        "village_name": "Ahirouli Charowan",
        "latitude": "26.03274129",
        "longitude": "83.79132591"
    },
    {
        "sl": "115",
        "village_code": "197794",
        "village_name": "Bishnupur Danda",
        "latitude": "26.02929684",
        "longitude": "83.78426723"
    },
    {
        "sl": "116",
        "village_code": "197795",
        "village_name": "Faridour",
        "latitude": "26.10011878",
        "longitude": "83.83875884"
    },
    {
        "sl": "117",
        "village_code": "197796",
        "village_name": "Jamin Sisain",
        "latitude": "26.09890318",
        "longitude": "83.83038352"
    },
    {
        "sl": "118",
        "village_code": "197797",
        "village_name": "Sisand Kala",
        "latitude": "26.09535074",
        "longitude": "83.81917892"
    },
    {
        "sl": "119",
        "village_code": "197798",
        "village_name": "Salempur T. Farsatar",
        "latitude": "26.08693398",
        "longitude": "83.83907562"
    },
    {
        "sl": "120",
        "village_code": "197799",
        "village_name": "Samsuddinpur",
        "latitude": "26.08290245",
        "longitude": "83.83035406"
    },
    {
        "sl": "121",
        "village_code": "197800",
        "village_name": "Chak Mahmood",
        "latitude": "26.08205268",
        "longitude": "83.83767271"
    },
    {
        "sl": "122",
        "village_code": "197801",
        "village_name": "Rajpur",
        "latitude": "26.06927611",
        "longitude": "83.84211747"
    },
    {
        "sl": "123",
        "village_code": "197802",
        "village_name": "Noorpur",
        "latitude": "26.07628909",
        "longitude": "83.83159339"
    },
    {
        "sl": "124",
        "village_code": "197803",
        "village_name": "Pashu Hari",
        "latitude": "26.07804299",
        "longitude": "83.8191891"
    },
    {
        "sl": "125",
        "village_code": "197804",
        "village_name": "Adampur",
        "latitude": "26.06669921",
        "longitude": "83.81674969"
    },
    {
        "sl": "126",
        "village_code": "197805",
        "village_name": "Rousada",
        "latitude": "26.06637015",
        "longitude": "83.82184154"
    },
    {
        "sl": "127",
        "village_code": "197806",
        "village_name": "Bhanpur",
        "latitude": "26.06171036",
        "longitude": "83.81785985"
    },
    {
        "sl": "128",
        "village_code": "197807",
        "village_name": "Masaon",
        "latitude": "26.10578716",
        "longitude": "83.83644593"
    },
    {
        "sl": "129",
        "village_code": "197808",
        "village_name": "Bhuari",
        "latitude": "26.1000053",
        "longitude": "83.84761222"
    },
    {
        "sl": "130",
        "village_code": "197809",
        "village_name": "Awayan",
        "latitude": "26.10670712",
        "longitude": "83.85963578"
    },
    {
        "sl": "131",
        "village_code": "197810",
        "village_name": "Dichhwam",
        "latitude": "26.10410268",
        "longitude": "83.86565823"
    },
    {
        "sl": "132",
        "village_code": "197811",
        "village_name": "Kupat",
        "latitude": "26.10003458",
        "longitude": "83.86593533"
    },
    {
        "sl": "133",
        "village_code": "197812",
        "village_name": "Jahidpur",
        "latitude": "26.09638692",
        "longitude": "83.86729067"
    },
    {
        "sl": "134",
        "village_code": "197813",
        "village_name": "Shekhpur",
        "latitude": "26.09275476",
        "longitude": "83.87256089"
    },
    {
        "sl": "135",
        "village_code": "197814",
        "village_name": "Birbhanpur",
        "latitude": "26.09254923",
        "longitude": "83.86486548"
    },
    {
        "sl": "136",
        "village_code": "197815",
        "village_name": "Bhikhampur",
        "latitude": "26.09707028",
        "longitude": "83.85780024"
    },
    {
        "sl": "137",
        "village_code": "197816",
        "village_name": "Misrooli",
        "latitude": "26.09862362",
        "longitude": "83.84461468"
    },
    {
        "sl": "138",
        "village_code": "197817",
        "village_name": "Chak Sherwani",
        "latitude": "26.0951833",
        "longitude": "83.84077301"
    },
    {
        "sl": "139",
        "village_code": "197818",
        "village_name": "Gangaupur",
        "latitude": "26.09576324",
        "longitude": "83.8368585"
    },
    {
        "sl": "140",
        "village_code": "197819",
        "village_name": "Bhadhara",
        "latitude": "26.09021984",
        "longitude": "83.83812924"
    },
    {
        "sl": "141",
        "village_code": "197820",
        "village_name": "Bhitoura",
        "latitude": "26.08539532",
        "longitude": "83.84243634"
    },
    {
        "sl": "142",
        "village_code": "197821",
        "village_name": "Farsatar",
        "latitude": "26.08533676",
        "longitude": "83.85776507"
    },
    {
        "sl": "143",
        "village_code": "197822",
        "village_name": "Paliya",
        "latitude": "26.07455437",
        "longitude": "83.84894531"
    },
    {
        "sl": "144",
        "village_code": "197823",
        "village_name": "Choukia",
        "latitude": "26.11961314",
        "longitude": "83.86325421"
    },
    {
        "sl": "145",
        "village_code": "197824",
        "village_name": "Kakraso",
        "latitude": "26.12702444",
        "longitude": "83.87127687"
    },
    {
        "sl": "146",
        "village_code": "197825",
        "village_name": "Karim Ganj",
        "latitude": "26.13008406",
        "longitude": "83.88283328"
    },
    {
        "sl": "147",
        "village_code": "197826",
        "village_name": "Belthra Bazar",
        "latitude": "26.12653474",
        "longitude": "83.89040359"
    },
    {
        "sl": "148",
        "village_code": "197827",
        "village_name": "Piprouli",
        "latitude": "26.11154513",
        "longitude": "83.87834574"
    },
    {
        "sl": "149",
        "village_code": "197828",
        "village_name": "Haldi Rampur",
        "latitude": "26.10702658",
        "longitude": "83.91442044"
    },
    {
        "sl": "150",
        "village_code": "197829",
        "village_name": "Kumwarpur",
        "latitude": "26.09514855",
        "longitude": "83.87984989"
    },
    {
        "sl": "151",
        "village_code": "197830",
        "village_name": "Shahpur Afga",
        "latitude": "26.08733076",
        "longitude": "83.88348229"
    },
    {
        "sl": "152",
        "village_code": "197831",
        "village_name": "Bhantpur",
        "latitude": "26.08987145",
        "longitude": "83.89235254"
    },
    {
        "sl": "153",
        "village_code": "197832",
        "village_name": "Telma Jamaluddinpur",
        "latitude": "26.07760762",
        "longitude": "83.89932205"
    },
    {
        "sl": "154",
        "village_code": "197833",
        "village_name": "Parsa Nandouli Tajpur",
        "latitude": "26.07664505",
        "longitude": "83.87777324"
    },
    {
        "sl": "155",
        "village_code": "197834",
        "village_name": "Baraitha",
        "latitude": "26.06795373",
        "longitude": "83.88368214"
    },
    {
        "sl": "156",
        "village_code": "197835",
        "village_name": "Rampur Chandela",
        "latitude": "26.06982196",
        "longitude": "83.87250612"
    },
    {
        "sl": "157",
        "village_code": "197836",
        "village_name": "Bidhara",
        "latitude": "26.07759036",
        "longitude": "83.85728952"
    },
    {
        "sl": "158",
        "village_code": "197837",
        "village_name": "Tirnie Khijirpur",
        "latitude": "26.06528506",
        "longitude": "83.86063323"
    },
    {
        "sl": "159",
        "village_code": "197838",
        "village_name": "Usmanpur",
        "latitude": "26.05802202",
        "longitude": "83.87073286"
    },
    {
        "sl": "160",
        "village_code": "197839",
        "village_name": "Molnapur",
        "latitude": "26.05912641",
        "longitude": "83.87944374"
    },
    {
        "sl": "161",
        "village_code": "197840",
        "village_name": "Tendua Patti Farsatar",
        "latitude": "26.06066722",
        "longitude": "83.88655516"
    },
    {
        "sl": "162",
        "village_code": "197841",
        "village_name": "Dholpur",
        "latitude": "26.05438429",
        "longitude": "83.88967837"
    },
    {
        "sl": "163",
        "village_code": "197842",
        "village_name": "Jamin Tendua",
        "latitude": "26.06374013",
        "longitude": "83.89177171"
    },
    {
        "sl": "164",
        "village_code": "197843",
        "village_name": "Ruppur Deokali",
        "latitude": "26.07115445",
        "longitude": "83.8865403"
    },
    {
        "sl": "165",
        "village_code": "197844",
        "village_name": "Babhnouli T. Telma",
        "latitude": "26.06826668",
        "longitude": "83.89095399"
    },
    {
        "sl": "166",
        "village_code": "197845",
        "village_name": "Rachhauli",
        "latitude": "26.06067344",
        "longitude": "83.89373917"
    },
    {
        "sl": "167",
        "village_code": "197846",
        "village_name": "Bahuta Chak Upadhaya",
        "latitude": "26.08816491",
        "longitude": "83.92350343"
    },
    {
        "sl": "168",
        "village_code": "197847",
        "village_name": "Kurha Tetra",
        "latitude": "26.07772765",
        "longitude": "83.9358932"
    },
    {
        "sl": "169",
        "village_code": "197848",
        "village_name": "Kadsar T. Parshurampur",
        "latitude": "26.07489414",
        "longitude": "83.92777371"
    },
    {
        "sl": "170",
        "village_code": "197849",
        "village_name": "Chainpur T. Parshurampur",
        "latitude": "26.07620177",
        "longitude": "83.91721428"
    },
    {
        "sl": "171",
        "village_code": "197850",
        "village_name": "Chandadih",
        "latitude": "26.06672645",
        "longitude": "83.91851178"
    },
    {
        "sl": "172",
        "village_code": "197851",
        "village_name": "Mahendua",
        "latitude": "26.05289206",
        "longitude": "83.9109194"
    },
    {
        "sl": "173",
        "village_code": "197852",
        "village_name": "Chak Mehar Ali Urf Maurha",
        "latitude": "26.05136846",
        "longitude": "83.91989509"
    },
    {
        "sl": "174",
        "village_code": "197853",
        "village_name": "Lakhwalia",
        "latitude": "26.0599135",
        "longitude": "83.9433432"
    },
    {
        "sl": "175",
        "village_code": "197854",
        "village_name": "Dharmpur",
        "latitude": "26.06840132",
        "longitude": "83.68951053"
    },
    {
        "sl": "176",
        "village_code": "197855",
        "village_name": "Asadia",
        "latitude": "26.06156777",
        "longitude": "83.70063262"
    },
    {
        "sl": "177",
        "village_code": "197856",
        "village_name": "Rampur",
        "latitude": "26.0573123",
        "longitude": "83.69397763"
    },
    {
        "sl": "178",
        "village_code": "197857",
        "village_name": "Barooli",
        "latitude": "26.04170056",
        "longitude": "83.68892682"
    },
    {
        "sl": "179",
        "village_code": "197858",
        "village_name": "Bibipur Asadia",
        "latitude": "26.04231432",
        "longitude": "83.69908733"
    },
    {
        "sl": "180",
        "village_code": "197859",
        "village_name": "Mahri",
        "latitude": "26.04695139",
        "longitude": "83.70530513"
    },
    {
        "sl": "181",
        "village_code": "197860",
        "village_name": "Barnag Basantpur",
        "latitude": "26.04630936",
        "longitude": "83.71453857"
    },
    {
        "sl": "182",
        "village_code": "197861",
        "village_name": "Tirnai Moula Rai",
        "latitude": "26.03657829",
        "longitude": "83.71035515"
    },
    {
        "sl": "183",
        "village_code": "197862",
        "village_name": "Haibatpur",
        "latitude": "26.0325168",
        "longitude": "83.7040155"
    },
    {
        "sl": "184",
        "village_code": "197863",
        "village_name": "Uskar Gaziapur",
        "latitude": "26.02590322",
        "longitude": "83.69324895"
    },
    {
        "sl": "185",
        "village_code": "197864",
        "village_name": "Hudhara",
        "latitude": "26.02191925",
        "longitude": "83.68299088"
    },
    {
        "sl": "186",
        "village_code": "197865",
        "village_name": "Barahimpur",
        "latitude": "26.01808783",
        "longitude": "83.68951033"
    },
    {
        "sl": "187",
        "village_code": "197866",
        "village_name": "Sawapar",
        "latitude": "26.02071915",
        "longitude": "83.69854253"
    },
    {
        "sl": "188",
        "village_code": "197867",
        "village_name": "Awarai Khurd",
        "latitude": "26.02349191",
        "longitude": "83.70873901"
    },
    {
        "sl": "189",
        "village_code": "197868",
        "village_name": "Rudipur",
        "latitude": "26.01616731",
        "longitude": "83.70740853"
    },
    {
        "sl": "190",
        "village_code": "197869",
        "village_name": "Habsapur",
        "latitude": "26.01482041",
        "longitude": "83.70259762"
    },
    {
        "sl": "191",
        "village_code": "197870",
        "village_name": "Radipur(Rudi)",
        "latitude": "26.01502107",
        "longitude": "83.69798143"
    },
    {
        "sl": "192",
        "village_code": "197871",
        "village_name": "Kharupur",
        "latitude": "26.01179772",
        "longitude": "83.68848426"
    },
    {
        "sl": "193",
        "village_code": "197872",
        "village_name": "Chak Mishrouli",
        "latitude": "26.00538017",
        "longitude": "83.69221352"
    },
    {
        "sl": "194",
        "village_code": "197873",
        "village_name": "Nigahua",
        "latitude": "26.0090032",
        "longitude": "83.69676932"
    },
    {
        "sl": "195",
        "village_code": "197874",
        "village_name": "Mithanua",
        "latitude": "26.00589859",
        "longitude": "83.70088915"
    },
    {
        "sl": "196",
        "village_code": "197875",
        "village_name": "Dugaipatti",
        "latitude": "26.01318682",
        "longitude": "83.70897679"
    },
    {
        "sl": "197",
        "village_code": "197876",
        "village_name": "Maharajpur",
        "latitude": "26.01104516",
        "longitude": "83.71785464"
    },
    {
        "sl": "198",
        "village_code": "197877",
        "village_name": "Awarai Kala",
        "latitude": "26.02834818",
        "longitude": "83.7240959"
    },
    {
        "sl": "199",
        "village_code": "197878",
        "village_name": "Baradih Lawai Patti",
        "latitude": "26.01170661",
        "longitude": "83.73024367"
    },
    {
        "sl": "200",
        "village_code": "197879",
        "village_name": "Baraich",
        "latitude": "26.00911203",
        "longitude": "83.74494598"
    },
    {
        "sl": "201",
        "village_code": "197880",
        "village_name": "Goura T. Bhimpura",
        "latitude": "26.04841833",
        "longitude": "83.78198592"
    },
    {
        "sl": "202",
        "village_code": "197881",
        "village_name": "Barewa",
        "latitude": "26.03319589",
        "longitude": "83.7780973"
    },
    {
        "sl": "203",
        "village_code": "197882",
        "village_name": "Shikaria T. Barewa",
        "latitude": "26.03918888",
        "longitude": "83.77477338"
    },
    {
        "sl": "204",
        "village_code": "197883",
        "village_name": "Mukhalispur",
        "latitude": "26.03863167",
        "longitude": "83.77104686"
    },
    {
        "sl": "205",
        "village_code": "197884",
        "village_name": "Bhimpura No.1 T. Barewa",
        "latitude": "26.02708167",
        "longitude": "83.76682891"
    },
    {
        "sl": "206",
        "village_code": "197885",
        "village_name": "Ramapatti Taspur",
        "latitude": "26.01127829",
        "longitude": "83.76874859"
    },
    {
        "sl": "207",
        "village_code": "197886",
        "village_name": "Babhnouli",
        "latitude": "26.00170685",
        "longitude": "83.75531872"
    },
    {
        "sl": "208",
        "village_code": "197887",
        "village_name": "Baharpur",
        "latitude": "25.99999724",
        "longitude": "83.76614867"
    },
    {
        "sl": "209",
        "village_code": "197888",
        "village_name": "Aripur Saraya",
        "latitude": "26.03682275",
        "longitude": "83.80030508"
    },
    {
        "sl": "210",
        "village_code": "197889",
        "village_name": "Karoundi",
        "latitude": "26.03252645",
        "longitude": "83.81208529"
    },
    {
        "sl": "211",
        "village_code": "197890",
        "village_name": "Jamin Kasaili Kasesar",
        "latitude": "26.01975347",
        "longitude": "83.81219507"
    },
    {
        "sl": "212",
        "village_code": "197891",
        "village_name": "Sikandrapur",
        "latitude": "26.02178972",
        "longitude": "83.7945097"
    },
    {
        "sl": "213",
        "village_code": "197892",
        "village_name": "Barwaratti Patti",
        "latitude": "26.00832965",
        "longitude": "83.78450989"
    },
    {
        "sl": "214",
        "village_code": "197893",
        "village_name": "Farhalouki",
        "latitude": "26.00485062",
        "longitude": "83.77083087"
    },
    {
        "sl": "215",
        "village_code": "197894",
        "village_name": "Nawada",
        "latitude": "26.00085013",
        "longitude": "83.77394316"
    },
    {
        "sl": "216",
        "village_code": "197895",
        "village_name": "Kasounder",
        "latitude": "26.00980431",
        "longitude": "83.80435205"
    },
    {
        "sl": "217",
        "village_code": "197896",
        "village_name": "Gopalpur T. Kasaili Kaseser",
        "latitude": "25.99662242",
        "longitude": "83.80787353"
    },
    {
        "sl": "218",
        "village_code": "197897",
        "village_name": "Jhampur",
        "latitude": "25.99081609",
        "longitude": "83.78458644"
    },
    {
        "sl": "219",
        "village_code": "197898",
        "village_name": "Devel Veer",
        "latitude": "25.98697783",
        "longitude": "83.78888496"
    },
    {
        "sl": "220",
        "village_code": "197899",
        "village_name": "Sidhouna",
        "latitude": "25.98490579",
        "longitude": "83.77985202"
    },
    {
        "sl": "221",
        "village_code": "197900",
        "village_name": "Radho Manda",
        "latitude": "25.98061971",
        "longitude": "83.7751393"
    },
    {
        "sl": "222",
        "village_code": "197901",
        "village_name": "Trilok Manda",
        "latitude": "25.98176322",
        "longitude": "83.77076859"
    },
    {
        "sl": "223",
        "village_code": "197902",
        "village_name": "Abbaspur",
        "latitude": "26.0219879",
        "longitude": "83.81819298"
    },
    {
        "sl": "224",
        "village_code": "197903",
        "village_name": "Dilman Mudhkibur",
        "latitude": "26.02978373",
        "longitude": "83.82415579"
    },
    {
        "sl": "225",
        "village_code": "197904",
        "village_name": "Masuria",
        "latitude": "26.03244687",
        "longitude": "83.83685609"
    },
    {
        "sl": "226",
        "village_code": "197905",
        "village_name": "Rupwar Bhagwanpur",
        "latitude": "26.02250327",
        "longitude": "83.82954347"
    },
    {
        "sl": "227",
        "village_code": "197906",
        "village_name": "Babhnauli T. Jipal Panday",
        "latitude": "26.01471927",
        "longitude": "83.82182936"
    },
    {
        "sl": "228",
        "village_code": "197907",
        "village_name": "Shankarpur Majhaua",
        "latitude": "26.01166837",
        "longitude": "83.8161717"
    },
    {
        "sl": "229",
        "village_code": "197908",
        "village_name": "Sihori",
        "latitude": "26.013398",
        "longitude": "83.82799382"
    },
    {
        "sl": "230",
        "village_code": "197909",
        "village_name": "Rajaram Patti",
        "latitude": "26.01454484",
        "longitude": "83.83219537"
    },
    {
        "sl": "231",
        "village_code": "197910",
        "village_name": "Sikrahta",
        "latitude": "26.01301954",
        "longitude": "83.84034426"
    },
    {
        "sl": "232",
        "village_code": "197911",
        "village_name": "Bisruf",
        "latitude": "26.02480865",
        "longitude": "83.84301965"
    },
    {
        "sl": "233",
        "village_code": "197912",
        "village_name": "Lahsani",
        "latitude": "26.00366912",
        "longitude": "83.84644867"
    },
    {
        "sl": "234",
        "village_code": "197913",
        "village_name": "Mohmadpurjapti Mafi",
        "latitude": "26.00335728",
        "longitude": "83.85828787"
    },
    {
        "sl": "235",
        "village_code": "197914",
        "village_name": "Parsia Ruppur",
        "latitude": "26.00580173",
        "longitude": "83.86658291"
    },
    {
        "sl": "236",
        "village_code": "197915",
        "village_name": "Deoria T. Prashurampur",
        "latitude": "26.01407306",
        "longitude": "83.86395491"
    },
    {
        "sl": "237",
        "village_code": "197916",
        "village_name": "Indaso",
        "latitude": "26.00417504",
        "longitude": "83.88113077"
    },
    {
        "sl": "238",
        "village_code": "197917",
        "village_name": "Adlispur",
        "latitude": "26.05966746",
        "longitude": "83.8458998"
    },
    {
        "sl": "239",
        "village_code": "197918",
        "village_name": "Khandwa Rajpur",
        "latitude": "26.05053814",
        "longitude": "83.84696159"
    },
    {
        "sl": "240",
        "village_code": "197919",
        "village_name": "Jamuaon Khanpur",
        "latitude": "26.05037065",
        "longitude": "83.86067096"
    },
    {
        "sl": "241",
        "village_code": "197920",
        "village_name": "Makhdunpur",
        "latitude": "26.04837036",
        "longitude": "83.8710099"
    },
    {
        "sl": "242",
        "village_code": "197921",
        "village_name": "Bhuara Khunt",
        "latitude": "26.04850302",
        "longitude": "83.87872481"
    },
    {
        "sl": "243",
        "village_code": "197922",
        "village_name": "Kaithi Khatimpur",
        "latitude": "26.0392891",
        "longitude": "83.87321722"
    },
    {
        "sl": "244",
        "village_code": "197923",
        "village_name": "Surjipur",
        "latitude": "26.03963061",
        "longitude": "83.86628337"
    },
    {
        "sl": "245",
        "village_code": "197924",
        "village_name": "Naurangia",
        "latitude": "26.03747257",
        "longitude": "83.86088171"
    },
    {
        "sl": "246",
        "village_code": "197925",
        "village_name": "Malipur",
        "latitude": "26.03406573",
        "longitude": "83.86670226"
    },
    {
        "sl": "247",
        "village_code": "197926",
        "village_name": "Govapar",
        "latitude": "26.02831181",
        "longitude": "83.86051009"
    },
    {
        "sl": "248",
        "village_code": "197927",
        "village_name": "Supapali",
        "latitude": "26.03537191",
        "longitude": "83.84842579"
    },
    {
        "sl": "249",
        "village_code": "197928",
        "village_name": "Bishunpur Danda",
        "latitude": "26.01785233",
        "longitude": "83.8539551"
    },
    {
        "sl": "250",
        "village_code": "197929",
        "village_name": "Bhojupur",
        "latitude": "26.03860343",
        "longitude": "83.88044321"
    },
    {
        "sl": "251",
        "village_code": "197930",
        "village_name": "Ahirauli",
        "latitude": "26.04239657",
        "longitude": "83.88474043"
    },
    {
        "sl": "252",
        "village_code": "197931",
        "village_name": "Nanoura",
        "latitude": "26.03634936",
        "longitude": "83.88803172"
    },
    {
        "sl": "253",
        "village_code": "197932",
        "village_name": "Padsara Juran",
        "latitude": "26.03374491",
        "longitude": "83.89578439"
    },
    {
        "sl": "254",
        "village_code": "197933",
        "village_name": "Doli",
        "latitude": "26.0285364",
        "longitude": "83.89167647"
    },
    {
        "sl": "255",
        "village_code": "197934",
        "village_name": "Dulesar",
        "latitude": "26.02481349",
        "longitude": "83.89146898"
    },
    {
        "sl": "256",
        "village_code": "197935",
        "village_name": "Lekhmanpur",
        "latitude": "26.02773225",
        "longitude": "83.88278785"
    },
    {
        "sl": "257",
        "village_code": "197936",
        "village_name": "Tekanpur",
        "latitude": "26.02696655",
        "longitude": "83.87775879"
    },
    {
        "sl": "258",
        "village_code": "197937",
        "village_name": "Habsapur T. Alipur",
        "latitude": "26.03312127",
        "longitude": "83.87460797"
    },
    {
        "sl": "259",
        "village_code": "197938",
        "village_name": "Chitouna",
        "latitude": "26.02568788",
        "longitude": "83.87091722"
    },
    {
        "sl": "260",
        "village_code": "197939",
        "village_name": "Chitauni",
        "latitude": "26.01661928",
        "longitude": "83.87414444"
    },
    {
        "sl": "261",
        "village_code": "197940",
        "village_name": "Nichuadih",
        "latitude": "26.01237283",
        "longitude": "83.87296588"
    },
    {
        "sl": "262",
        "village_code": "197941",
        "village_name": "Kamrouli",
        "latitude": "26.01737947",
        "longitude": "83.8801492"
    },
    {
        "sl": "263",
        "village_code": "197942",
        "village_name": "Belaspur",
        "latitude": "26.01806369",
        "longitude": "83.88763994"
    },
    {
        "sl": "264",
        "village_code": "197943",
        "village_name": "Badhvalia",
        "latitude": "26.01092398",
        "longitude": "83.89225362"
    },
    {
        "sl": "265",
        "village_code": "197944",
        "village_name": "Saddopur",
        "latitude": "26.04910545",
        "longitude": "83.88448507"
    },
    {
        "sl": "266",
        "village_code": "197945",
        "village_name": "Purusotampur",
        "latitude": "26.04698212",
        "longitude": "83.89240437"
    },
    {
        "sl": "267",
        "village_code": "197946",
        "village_name": "Karni",
        "latitude": "26.05691571",
        "longitude": "83.90131814"
    },
    {
        "sl": "268",
        "village_code": "197947",
        "village_name": "Titloukia Urf Kishor Ganj",
        "latitude": "26.04442341",
        "longitude": "83.90569271"
    },
    {
        "sl": "269",
        "village_code": "197948",
        "village_name": "Karimpur",
        "latitude": "26.04072015",
        "longitude": "83.92083551"
    },
    {
        "sl": "270",
        "village_code": "197949",
        "village_name": "Bihraharpur",
        "latitude": "26.03902658",
        "longitude": "83.90607339"
    },
    {
        "sl": "271",
        "village_code": "197950",
        "village_name": "Nara Vanpur",
        "latitude": "26.03181729",
        "longitude": "83.90626226"
    },
    {
        "sl": "272",
        "village_code": "197951",
        "village_name": "Turki Daulatpur",
        "latitude": "26.0272677",
        "longitude": "83.90570294"
    },
    {
        "sl": "273",
        "village_code": "197952",
        "village_name": "Bishunpura",
        "latitude": "26.02285621",
        "longitude": "83.89811839"
    },
    {
        "sl": "274",
        "village_code": "197953",
        "village_name": "Indouli Malkouli",
        "latitude": "26.0215104",
        "longitude": "83.92278453"
    },
    {
        "sl": "275",
        "village_code": "197954",
        "village_name": "Bhimpura T. Parsurampur",
        "latitude": "26.0127209",
        "longitude": "83.90466479"
    },
    {
        "sl": "276",
        "village_code": "197955",
        "village_name": "Ranupur",
        "latitude": "26.00696962",
        "longitude": "83.92460021"
    },
    {
        "sl": "277",
        "village_code": "197956",
        "village_name": "Kotha Galib Pattiurf Bhaupur",
        "latitude": "26.01346358",
        "longitude": "83.94043564"
    },
    {
        "sl": "278",
        "village_code": "197957",
        "village_name": "Rampur Hazia",
        "latitude": "26.02322067",
        "longitude": "83.94344548"
    },
    {
        "sl": "279",
        "village_code": "197958",
        "village_name": "Chandpur",
        "latitude": "26.02221034",
        "longitude": "83.95301161"
    },
    {
        "sl": "280",
        "village_code": "197959",
        "village_name": "Dhodhwa",
        "latitude": "26.01549529",
        "longitude": "83.95079596"
    },
    {
        "sl": "281",
        "village_code": "197960",
        "village_name": "Hazia Rampur",
        "latitude": "26.00981315",
        "longitude": "83.94923732"
    },
    {
        "sl": "282",
        "village_code": "197961",
        "village_name": "Sariya Gulabpur",
        "latitude": "26.00210535",
        "longitude": "83.94549424"
    },
    {
        "sl": "283",
        "village_code": "197962",
        "village_name": "Khalispur",
        "latitude": "26.00606376",
        "longitude": "83.88762575"
    },
    {
        "sl": "284",
        "village_code": "197963",
        "village_name": "Chadi Sarai Sambhal",
        "latitude": "25.99967826",
        "longitude": "83.93389048"
    },
    {
        "sl": "285",
        "village_code": "197964",
        "village_name": "Shivpur Mathia",
        "latitude": "26.09012021",
        "longitude": "83.82917873"
    },
    {
        "sl": "286",
        "village_code": "197965",
        "village_name": "Duha Bihra",
        "latitude": "26.11142923",
        "longitude": "83.97058685"
    },
    {
        "sl": "287",
        "village_code": "197966",
        "village_name": "Narayanpur",
        "latitude": "26.10311619",
        "longitude": "83.94924966"
    },
    {
        "sl": "288",
        "village_code": "197967",
        "village_name": "Kundi Dih",
        "latitude": "26.09663931",
        "longitude": "83.95692658"
    },
    {
        "sl": "289",
        "village_code": "197968",
        "village_name": "Bhagawanpur",
        "latitude": "26.10009595",
        "longitude": "83.96288897"
    },
    {
        "sl": "290",
        "village_code": "197969",
        "village_name": "Dugooli Indar Chak",
        "latitude": "26.09453077",
        "longitude": "83.9644642"
    },
    {
        "sl": "291",
        "village_code": "197970",
        "village_name": "Katahra Jamin Katahra",
        "latitude": "26.08067538",
        "longitude": "83.96362176"
    },
    {
        "sl": "292",
        "village_code": "197971",
        "village_name": "Bal Badhar",
        "latitude": "26.08690317",
        "longitude": "83.96886648"
    },
    {
        "sl": "293",
        "village_code": "197972",
        "village_name": "Bhimhar",
        "latitude": "26.09230716",
        "longitude": "83.97289882"
    },
    {
        "sl": "294",
        "village_code": "197973",
        "village_name": "Dhori Dih",
        "latitude": "26.0937857",
        "longitude": "83.98240388"
    },
    {
        "sl": "295",
        "village_code": "197974",
        "village_name": "Mashaha",
        "latitude": "26.09144113",
        "longitude": "83.987339"
    },
    {
        "sl": "296",
        "village_code": "197975",
        "village_name": "Kathooda",
        "latitude": "26.09730544",
        "longitude": "84.01409902"
    },
    {
        "sl": "297",
        "village_code": "197976",
        "village_name": "Barhuncha",
        "latitude": "26.09165599",
        "longitude": "84.03704129"
    },
    {
        "sl": "298",
        "village_code": "197977",
        "village_name": "Jamue",
        "latitude": "26.07844968",
        "longitude": "84.03248951"
    },
    {
        "sl": "299",
        "village_code": "197978",
        "village_name": "Murracha",
        "latitude": "26.06924006",
        "longitude": "84.03241259"
    },
    {
        "sl": "300",
        "village_code": "197979",
        "village_name": "Narhami Turk Ballia",
        "latitude": "26.07884976",
        "longitude": "84.01485932"
    },
    {
        "sl": "301",
        "village_code": "197980",
        "village_name": "Akasar",
        "latitude": "26.0677077",
        "longitude": "84.00925724"
    },
    {
        "sl": "302",
        "village_code": "197981",
        "village_name": "Jagdishpur Ranipur",
        "latitude": "26.06676645",
        "longitude": "84.01699173"
    },
    {
        "sl": "303",
        "village_code": "197982",
        "village_name": "Rudarwar",
        "latitude": "26.05762544",
        "longitude": "84.01192919"
    },
    {
        "sl": "304",
        "village_code": "197983",
        "village_name": "Harsand",
        "latitude": "26.08227211",
        "longitude": "83.97824309"
    },
    {
        "sl": "305",
        "village_code": "197984",
        "village_name": "Tiwaripur",
        "latitude": "26.08584471",
        "longitude": "83.98580651"
    },
    {
        "sl": "306",
        "village_code": "197985",
        "village_name": "Mueya",
        "latitude": "26.0843788",
        "longitude": "83.99200615"
    },
    {
        "sl": "307",
        "village_code": "197986",
        "village_name": "Majhwallia",
        "latitude": "26.08137765",
        "longitude": "84.00579275"
    },
    {
        "sl": "308",
        "village_code": "197987",
        "village_name": "Dandupur",
        "latitude": "26.07918491",
        "longitude": "83.9963373"
    },
    {
        "sl": "309",
        "village_code": "197988",
        "village_name": "Malwar",
        "latitude": "26.07209781",
        "longitude": "84.00106972"
    },
    {
        "sl": "310",
        "village_code": "197989",
        "village_name": "Nawa Nagar",
        "latitude": "26.07244924",
        "longitude": "83.99014967"
    },
    {
        "sl": "311",
        "village_code": "197990",
        "village_name": "Chandi",
        "latitude": "26.06415765",
        "longitude": "83.98713283"
    },
    {
        "sl": "312",
        "village_code": "197991",
        "village_name": "Jamalpur",
        "latitude": "26.07547471",
        "longitude": "83.97064874"
    },
    {
        "sl": "313",
        "village_code": "197992",
        "village_name": "Husenpur",
        "latitude": "26.06902989",
        "longitude": "83.97390615"
    },
    {
        "sl": "314",
        "village_code": "197993",
        "village_name": "Tenduwa",
        "latitude": "26.07137077",
        "longitude": "83.9546357"
    },
    {
        "sl": "315",
        "village_code": "197994",
        "village_name": "Bharthawa",
        "latitude": "26.05850831",
        "longitude": "83.9529271"
    },
    {
        "sl": "316",
        "village_code": "197995",
        "village_name": "Jajooli Rajman",
        "latitude": "26.05766709",
        "longitude": "83.97295977"
    },
    {
        "sl": "317",
        "village_code": "197996",
        "village_name": "Koth",
        "latitude": "26.04982639",
        "longitude": "83.99407788"
    },
    {
        "sl": "318",
        "village_code": "197997",
        "village_name": "Maleji",
        "latitude": "26.06483239",
        "longitude": "83.99624492"
    },
    {
        "sl": "319",
        "village_code": "197998",
        "village_name": "Harnatar Dayalpur",
        "latitude": "26.09039969",
        "longitude": "83.94317416"
    },
    {
        "sl": "320",
        "village_code": "197999",
        "village_name": "Malada",
        "latitude": "26.09369795",
        "longitude": "83.95111302"
    },
    {
        "sl": "321",
        "village_code": "198000",
        "village_name": "Tiloti",
        "latitude": "26.08524007",
        "longitude": "83.95829777"
    },
    {
        "sl": "322",
        "village_code": "198001",
        "village_name": "Uchrawn",
        "latitude": "26.07877111",
        "longitude": "83.95566819"
    },
    {
        "sl": "323",
        "village_code": "198002",
        "village_name": "Baghudi",
        "latitude": "26.08032198",
        "longitude": "83.94596142"
    },
    {
        "sl": "324",
        "village_code": "198003",
        "village_name": "Chamukha",
        "latitude": "26.07145969",
        "longitude": "83.94388106"
    },
    {
        "sl": "325",
        "village_code": "198004",
        "village_name": "Hardiya Jamin Hardiya",
        "latitude": "26.06460647",
        "longitude": "83.93916543"
    },
    {
        "sl": "326",
        "village_code": "198005",
        "village_name": "Karsi",
        "latitude": "26.05614696",
        "longitude": "83.92905379"
    },
    {
        "sl": "327",
        "village_code": "198006",
        "village_name": "Balesadi",
        "latitude": "26.05282235",
        "longitude": "83.93856899"
    },
    {
        "sl": "328",
        "village_code": "198007",
        "village_name": "Dewakali",
        "latitude": "26.04039947",
        "longitude": "83.93929272"
    },
    {
        "sl": "329",
        "village_code": "198008",
        "village_name": "Bishunpura Chak Jujhar",
        "latitude": "26.04634927",
        "longitude": "83.95287176"
    },
    {
        "sl": "330",
        "village_code": "198009",
        "village_name": "Loohar",
        "latitude": "26.04201537",
        "longitude": "83.94941848"
    },
    {
        "sl": "331",
        "village_code": "198010",
        "village_name": "Khatanga",
        "latitude": "26.03855611",
        "longitude": "83.95757371"
    },
    {
        "sl": "332",
        "village_code": "198011",
        "village_name": "Baramadiya",
        "latitude": "26.03032353",
        "longitude": "83.95403282"
    },
    {
        "sl": "333",
        "village_code": "198012",
        "village_name": "Sariyion Manobir",
        "latitude": "26.0283855",
        "longitude": "83.93487248"
    },
    {
        "sl": "334",
        "village_code": "198013",
        "village_name": "Khatanga Math Ramgiri",
        "latitude": "26.0484765",
        "longitude": "83.96059078"
    },
    {
        "sl": "335",
        "village_code": "198014",
        "village_name": "Sikiya",
        "latitude": "26.04517686",
        "longitude": "83.97100101"
    },
    {
        "sl": "336",
        "village_code": "198015",
        "village_name": "Mahro",
        "latitude": "26.03715842",
        "longitude": "83.97839872"
    },
    {
        "sl": "337",
        "village_code": "198016",
        "village_name": "Kodai",
        "latitude": "26.03292169",
        "longitude": "83.96584827"
    },
    {
        "sl": "338",
        "village_code": "198017",
        "village_name": "Basti Bujurg",
        "latitude": "26.02941933",
        "longitude": "83.9825888"
    },
    {
        "sl": "339",
        "village_code": "198018",
        "village_name": "Esar Pithapatti",
        "latitude": "26.0183557",
        "longitude": "83.9690626"
    },
    {
        "sl": "340",
        "village_code": "198019",
        "village_name": "Usari",
        "latitude": "26.05152489",
        "longitude": "84.00927061"
    },
    {
        "sl": "341",
        "village_code": "198020",
        "village_name": "Walidadpur",
        "latitude": "26.04861182",
        "longitude": "84.02078136"
    },
    {
        "sl": "342",
        "village_code": "198021",
        "village_name": "Chakpema Urf Bhatwa Chak",
        "latitude": "26.04646572",
        "longitude": "84.02809549"
    },
    {
        "sl": "343",
        "village_code": "198022",
        "village_name": "Chak Abid",
        "latitude": "26.04467888",
        "longitude": "84.02957636"
    },
    {
        "sl": "344",
        "village_code": "198023",
        "village_name": "Chak Sabut",
        "latitude": "26.04786377",
        "longitude": "84.03636459"
    },
    {
        "sl": "345",
        "village_code": "198024",
        "village_name": "Baro Panno",
        "latitude": "26.04860806",
        "longitude": "84.04525179"
    },
    {
        "sl": "346",
        "village_code": "198025",
        "village_name": "Chak Pulan",
        "latitude": "26.04575366",
        "longitude": "84.04326347"
    },
    {
        "sl": "347",
        "village_code": "198026",
        "village_name": "Misraulia",
        "latitude": "26.04322395",
        "longitude": "84.04660681"
    },
    {
        "sl": "348",
        "village_code": "198027",
        "village_name": "Chak Hajiyani",
        "latitude": "26.04474857",
        "longitude": "84.04086381"
    },
    {
        "sl": "349",
        "village_code": "198028",
        "village_name": "Mirzapur",
        "latitude": "26.04493096",
        "longitude": "84.03790959"
    },
    {
        "sl": "350",
        "village_code": "198029",
        "village_name": "Dugouli",
        "latitude": "26.0368011",
        "longitude": "84.03994229"
    },
    {
        "sl": "351",
        "village_code": "198030",
        "village_name": "Belatari mangalpur",
        "latitude": "26.03534956",
        "longitude": "84.04370477"
    },
    {
        "sl": "352",
        "village_code": "198031",
        "village_name": "Shankarpur",
        "latitude": "26.03740601",
        "longitude": "84.03578121"
    },
    {
        "sl": "353",
        "village_code": "198032",
        "village_name": "Chandpur",
        "latitude": "26.04113608",
        "longitude": "84.03688603"
    },
    {
        "sl": "354",
        "village_code": "198033",
        "village_name": "Banhara",
        "latitude": "26.03257215",
        "longitude": "84.0294515"
    },
    {
        "sl": "355",
        "village_code": "198034",
        "village_name": "Chak Thakur Dwara",
        "latitude": "26.04021642",
        "longitude": "84.02610188"
    },
    {
        "sl": "356",
        "village_code": "198035",
        "village_name": "Bhati",
        "latitude": "26.03792146",
        "longitude": "84.01878896"
    },
    {
        "sl": "357",
        "village_code": "198036",
        "village_name": "Gaji Pakad",
        "latitude": "26.04434306",
        "longitude": "84.01063211"
    },
    {
        "sl": "358",
        "village_code": "198037",
        "village_name": "Uchrawn",
        "latitude": "26.03612833",
        "longitude": "84.0041824"
    },
    {
        "sl": "359",
        "village_code": "198038",
        "village_name": "Ranpur Katrai",
        "latitude": "26.02664921",
        "longitude": "84.01098049"
    },
    {
        "sl": "360",
        "village_code": "198039",
        "village_name": "Son Basra",
        "latitude": "26.02016405",
        "longitude": "84.01314443"
    },
    {
        "sl": "361",
        "village_code": "198040",
        "village_name": "Adhawar",
        "latitude": "26.06471798",
        "longitude": "84.02322131"
    },
    {
        "sl": "362",
        "village_code": "198041",
        "village_name": "Karmouta",
        "latitude": "26.05569819",
        "longitude": "84.02260284"
    },
    {
        "sl": "363",
        "village_code": "198042",
        "village_name": "Jaminwali Dadpur",
        "latitude": "26.04978701",
        "longitude": "84.02860943"
    },
    {
        "sl": "364",
        "village_code": "198043",
        "village_name": "Belatari Karmouta",
        "latitude": "26.05250865",
        "longitude": "84.03060051"
    },
    {
        "sl": "365",
        "village_code": "198044",
        "village_name": "Chak Kalandar",
        "latitude": "26.05210822",
        "longitude": "84.03741317"
    },
    {
        "sl": "366",
        "village_code": "198045",
        "village_name": "Chak Purushotim",
        "latitude": "26.05684778",
        "longitude": "84.03079968"
    },
    {
        "sl": "367",
        "village_code": "198046",
        "village_name": "Kaith Wallia",
        "latitude": "26.05897084",
        "longitude": "84.0334315"
    },
    {
        "sl": "368",
        "village_code": "198047",
        "village_name": "Mishrouli",
        "latitude": "26.06454165",
        "longitude": "84.03467985"
    },
    {
        "sl": "369",
        "village_code": "198048",
        "village_name": "Lilkar",
        "latitude": "26.07201579",
        "longitude": "84.05070922"
    },
    {
        "sl": "370",
        "village_code": "198049",
        "village_name": "Sisotar Diyara",
        "latitude": "26.06244503",
        "longitude": "84.08245459"
    },
    {
        "sl": "371",
        "village_code": "198050",
        "village_name": "Diyara Amarpur",
        "latitude": "26.08712733",
        "longitude": "84.09096581"
    },
    {
        "sl": "372",
        "village_code": "198051",
        "village_name": "Diyara Karmaha",
        "latitude": "26.07409154",
        "longitude": "84.10779178"
    },
    {
        "sl": "373",
        "village_code": "198052",
        "village_name": "Kishor Chetan",
        "latitude": "26.05261758",
        "longitude": "84.0863095"
    },
    {
        "sl": "374",
        "village_code": "198053",
        "village_name": "Jalali Pur",
        "latitude": "26.0505316",
        "longitude": "84.07112222"
    },
    {
        "sl": "375",
        "village_code": "198054",
        "village_name": "Santhi Eksar",
        "latitude": "26.04256304",
        "longitude": "84.06935862"
    },
    {
        "sl": "376",
        "village_code": "198055",
        "village_name": "Jamalpur",
        "latitude": "26.03815114",
        "longitude": "84.09827851"
    },
    {
        "sl": "377",
        "village_code": "198056",
        "village_name": "Chak Habib",
        "latitude": "26.042551",
        "longitude": "84.10164466"
    },
    {
        "sl": "378",
        "village_code": "198057",
        "village_name": "Chak Haji Urf Shekhpur",
        "latitude": "26.04219639",
        "longitude": "84.10524441"
    },
    {
        "sl": "379",
        "village_code": "198058",
        "village_name": "Chak Miran",
        "latitude": "26.0467115",
        "longitude": "84.10415622"
    },
    {
        "sl": "380",
        "village_code": "198059",
        "village_name": "Jahidipur",
        "latitude": "26.04620963",
        "longitude": "84.10807282"
    },
    {
        "sl": "381",
        "village_code": "198060",
        "village_name": "Chak Bhadikara",
        "latitude": "26.02811342",
        "longitude": "84.03500939"
    },
    {
        "sl": "382",
        "village_code": "198061",
        "village_name": "Chak Beldev",
        "latitude": "26.03188774",
        "longitude": "84.0419457"
    },
    {
        "sl": "383",
        "village_code": "198062",
        "village_name": "Bhadikara",
        "latitude": "26.02438006",
        "longitude": "84.04116636"
    },
    {
        "sl": "384",
        "village_code": "198063",
        "village_name": "Habatpur",
        "latitude": "26.02707818",
        "longitude": "84.04768797"
    },
    {
        "sl": "385",
        "village_code": "198064",
        "village_name": "Chak Khan",
        "latitude": "26.03059507",
        "longitude": "84.05351874"
    },
    {
        "sl": "386",
        "village_code": "198065",
        "village_name": "Bagara",
        "latitude": "26.02313526",
        "longitude": "84.05283897"
    },
    {
        "sl": "387",
        "village_code": "198066",
        "village_name": "Gang Kishor",
        "latitude": "26.02094955",
        "longitude": "84.06008646"
    },
    {
        "sl": "388",
        "village_code": "198067",
        "village_name": "Chak Chakunda",
        "latitude": "26.02568607",
        "longitude": "84.06548913"
    },
    {
        "sl": "389",
        "village_code": "198068",
        "village_name": "Chak Chamari",
        "latitude": "26.02853714",
        "longitude": "84.06532153"
    },
    {
        "sl": "390",
        "village_code": "198069",
        "village_name": "Chak Kamal",
        "latitude": "26.03175366",
        "longitude": "84.0655173"
    },
    {
        "sl": "391",
        "village_code": "198070",
        "village_name": "Santhi Chatur",
        "latitude": "26.0348115",
        "longitude": "84.07062412"
    },
    {
        "sl": "392",
        "village_code": "198071",
        "village_name": "Siwan Khurd",
        "latitude": "26.03325066",
        "longitude": "84.08243473"
    },
    {
        "sl": "393",
        "village_code": "198072",
        "village_name": "Siwan Kala",
        "latitude": "26.01878119",
        "longitude": "84.07887311"
    },
    {
        "sl": "394",
        "village_code": "198073",
        "village_name": "Chak Usman",
        "latitude": "26.00526993",
        "longitude": "84.06486746"
    },
    {
        "sl": "395",
        "village_code": "198074",
        "village_name": "Rudwar Jagdishpur",
        "latitude": "26.00394631",
        "longitude": "84.07011039"
    },
    {
        "sl": "396",
        "village_code": "198075",
        "village_name": "Chak Pema Urf Marwattiya",
        "latitude": "26.00507158",
        "longitude": "84.07568195"
    },
    {
        "sl": "397",
        "village_code": "198076",
        "village_name": "Chanduki",
        "latitude": "26.00518888",
        "longitude": "84.0806053"
    },
    {
        "sl": "398",
        "village_code": "198077",
        "village_name": "Araji Kariyapar",
        "latitude": "26.00736762",
        "longitude": "84.08905504"
    },
    {
        "sl": "399",
        "village_code": "198078",
        "village_name": "Son Purwa",
        "latitude": "26.00103703",
        "longitude": "84.09345174"
    },
    {
        "sl": "400",
        "village_code": "198079",
        "village_name": "Gaura Madanpura",
        "latitude": "25.99920742",
        "longitude": "83.95548494"
    },
    {
        "sl": "401",
        "village_code": "198080",
        "village_name": "Khaira Chak Hetim",
        "latitude": "26.01192738",
        "longitude": "83.95787297"
    },
    {
        "sl": "402",
        "village_code": "198081",
        "village_name": "Eakel",
        "latitude": "26.00430823",
        "longitude": "83.96700263"
    },
    {
        "sl": "403",
        "village_code": "198082",
        "village_name": "Mahuwa Par Urf Dakin Ganj",
        "latitude": "26.00957322",
        "longitude": "83.98331965"
    },
    {
        "sl": "404",
        "village_code": "198083",
        "village_name": "Sihoria",
        "latitude": "25.9994352",
        "longitude": "83.98926628"
    },
    {
        "sl": "405",
        "village_code": "198084",
        "village_name": "Nahila Par",
        "latitude": "26.00213283",
        "longitude": "83.98082194"
    },
    {
        "sl": "406",
        "village_code": "198085",
        "village_name": "Babhnouli Taa Basti",
        "latitude": "25.9980993",
        "longitude": "83.97690331"
    },
    {
        "sl": "407",
        "village_code": "198086",
        "village_name": "Tandawa Taa Basti",
        "latitude": "25.99276181",
        "longitude": "83.96976912"
    },
    {
        "sl": "408",
        "village_code": "198087",
        "village_name": "Mujhi",
        "latitude": "25.99055914",
        "longitude": "83.98954854"
    },
    {
        "sl": "409",
        "village_code": "198088",
        "village_name": "Dharhara",
        "latitude": "26.01890738",
        "longitude": "83.9841085"
    },
    {
        "sl": "410",
        "village_code": "198089",
        "village_name": "Mudera",
        "latitude": "26.02575622",
        "longitude": "83.99002804"
    },
    {
        "sl": "411",
        "village_code": "198090",
        "village_name": "Sarani",
        "latitude": "26.02437894",
        "longitude": "84.00088147"
    },
    {
        "sl": "412",
        "village_code": "198091",
        "village_name": "Lakhanapar",
        "latitude": "26.0179673",
        "longitude": "83.99619523"
    },
    {
        "sl": "413",
        "village_code": "198092",
        "village_name": "Mahulanpar",
        "latitude": "26.01269531",
        "longitude": "83.99599149"
    },
    {
        "sl": "414",
        "village_code": "198093",
        "village_name": "Nanhul",
        "latitude": "26.0032273",
        "longitude": "83.99856896"
    },
    {
        "sl": "415",
        "village_code": "198094",
        "village_name": "Chandawa Barwa",
        "latitude": "26.00840397",
        "longitude": "84.01568945"
    },
    {
        "sl": "416",
        "village_code": "198095",
        "village_name": "Punai Par",
        "latitude": "26.01627989",
        "longitude": "84.01310374"
    },
    {
        "sl": "417",
        "village_code": "198096",
        "village_name": "Jamin Bhati",
        "latitude": "26.02857477",
        "longitude": "84.02148892"
    },
    {
        "sl": "418",
        "village_code": "198097",
        "village_name": "Sandawapur",
        "latitude": "26.02261019",
        "longitude": "84.02716498"
    },
    {
        "sl": "419",
        "village_code": "198098",
        "village_name": "Kikodha",
        "latitude": "26.01188032",
        "longitude": "84.02997405"
    },
    {
        "sl": "420",
        "village_code": "198099",
        "village_name": "Dhaneja",
        "latitude": "26.01468366",
        "longitude": "84.04043437"
    },
    {
        "sl": "421",
        "village_code": "198100",
        "village_name": "Pandah",
        "latitude": "26.00824688",
        "longitude": "84.05085307"
    },
    {
        "sl": "422",
        "village_code": "198101",
        "village_name": "Umedha",
        "latitude": "25.99964006",
        "longitude": "84.04365187"
    },
    {
        "sl": "423",
        "village_code": "198102",
        "village_name": "Masumpur",
        "latitude": "25.99863579",
        "longitude": "84.07792958"
    },
    {
        "sl": "424",
        "village_code": "198103",
        "village_name": "Kathwallia",
        "latitude": "25.99784101",
        "longitude": "84.07009507"
    },
    {
        "sl": "425",
        "village_code": "198104",
        "village_name": "Sasanu Ahlu",
        "latitude": "25.99580378",
        "longitude": "84.06325693"
    },
    {
        "sl": "426",
        "village_code": "198105",
        "village_name": "Baheri",
        "latitude": "25.99392467",
        "longitude": "84.05705133"
    },
    {
        "sl": "427",
        "village_code": "198106",
        "village_name": "Firojpur Chak Usuf",
        "latitude": "25.98783763",
        "longitude": "84.06325441"
    },
    {
        "sl": "428",
        "village_code": "198107",
        "village_name": "Bhuda Dih",
        "latitude": "25.98723684",
        "longitude": "84.07908361"
    },
    {
        "sl": "429",
        "village_code": "198108",
        "village_name": "Gouri",
        "latitude": "25.99094125",
        "longitude": "84.00358394"
    },
    {
        "sl": "430",
        "village_code": "198109",
        "village_name": "Bachha Par",
        "latitude": "25.99861177",
        "longitude": "84.02905221"
    },
    {
        "sl": "431",
        "village_code": "198110",
        "village_name": "Jethwar",
        "latitude": "25.99229753",
        "longitude": "84.0443731"
    },
    {
        "sl": "432",
        "village_code": "198111",
        "village_name": "Gopalpur",
        "latitude": "25.98772205",
        "longitude": "84.02875242"
    },
    {
        "sl": "433",
        "village_code": "198112",
        "village_name": "Ramapar",
        "latitude": "25.99256543",
        "longitude": "84.0234803"
    },
    {
        "sl": "434",
        "village_code": "198113",
        "village_name": "Karsand",
        "latitude": "25.98952455",
        "longitude": "84.01212326"
    },
    {
        "sl": "435",
        "village_code": "198114",
        "village_name": "Parsadpur",
        "latitude": "25.97566587",
        "longitude": "84.00583903"
    },
    {
        "sl": "436",
        "village_code": "198115",
        "village_name": "Sidhauli",
        "latitude": "25.98199546",
        "longitude": "84.02974937"
    },
    {
        "sl": "437",
        "village_code": "198116",
        "village_name": "Jugesara",
        "latitude": "25.97439992",
        "longitude": "84.02360585"
    },
    {
        "sl": "438",
        "village_code": "198117",
        "village_name": "Salempur",
        "latitude": "25.97568541",
        "longitude": "84.03060389"
    },
    {
        "sl": "439",
        "village_code": "198118",
        "village_name": "Chak Bahauddin",
        "latitude": "25.98878202",
        "longitude": "84.04661728"
    },
    {
        "sl": "440",
        "village_code": "198119",
        "village_name": "Pagambarpur",
        "latitude": "25.98631352",
        "longitude": "84.05125233"
    },
    {
        "sl": "441",
        "village_code": "198120",
        "village_name": "Chak Usralla",
        "latitude": "25.9769608",
        "longitude": "84.0479899"
    },
    {
        "sl": "442",
        "village_code": "198121",
        "village_name": "Pur",
        "latitude": "25.96507217",
        "longitude": "84.01485972"
    },
    {
        "sl": "443",
        "village_code": "198122",
        "village_name": "Chhatarsand",
        "latitude": "25.95890864",
        "longitude": "83.99203302"
    },
    {
        "sl": "444",
        "village_code": "198123",
        "village_name": "Muhammadpur",
        "latitude": "25.9443492",
        "longitude": "83.9679341"
    },
    {
        "sl": "445",
        "village_code": "198124",
        "village_name": "Fulwarria",
        "latitude": "25.95779411",
        "longitude": "83.98350308"
    },
    {
        "sl": "446",
        "village_code": "198125",
        "village_name": "Sahulai Hardo Patti",
        "latitude": "25.95710215",
        "longitude": "83.9749463"
    },
    {
        "sl": "447",
        "village_code": "198126",
        "village_name": "Gadhamalpur",
        "latitude": "25.93352073",
        "longitude": "83.97065148"
    },
    {
        "sl": "448",
        "village_code": "198127",
        "village_name": "Mishrouli",
        "latitude": "25.92344147",
        "longitude": "83.98184027"
    },
    {
        "sl": "449",
        "village_code": "198128",
        "village_name": "Ratsi Mehmapur",
        "latitude": "25.92287719",
        "longitude": "83.96567819"
    },
    {
        "sl": "450",
        "village_code": "198129",
        "village_name": "Doghara",
        "latitude": "25.91328877",
        "longitude": "83.96245355"
    },
    {
        "sl": "451",
        "village_code": "198130",
        "village_name": "Chhitupali",
        "latitude": "25.91519655",
        "longitude": "83.97049522"
    },
    {
        "sl": "452",
        "village_code": "198131",
        "village_name": "Ukchhi",
        "latitude": "25.91433411",
        "longitude": "83.98110365"
    },
    {
        "sl": "453",
        "village_code": "198132",
        "village_name": "Chak Jiya",
        "latitude": "25.95132267",
        "longitude": "83.99776964"
    },
    {
        "sl": "454",
        "village_code": "198133",
        "village_name": "Araji Chak Moti",
        "latitude": "25.94583623",
        "longitude": "83.9971926"
    },
    {
        "sl": "455",
        "village_code": "198134",
        "village_name": "Pahrajpur",
        "latitude": "25.94293107",
        "longitude": "84.00614783"
    },
    {
        "sl": "456",
        "village_code": "198135",
        "village_name": "Chak Jalal",
        "latitude": "25.93753713",
        "longitude": "84.0136502"
    },
    {
        "sl": "457",
        "village_code": "198136",
        "village_name": "Sona Dih",
        "latitude": "25.94212106",
        "longitude": "84.02994915"
    },
    {
        "sl": "458",
        "village_code": "198137",
        "village_name": "Sarya Khabaspur",
        "latitude": "25.9350088",
        "longitude": "84.03138776"
    },
    {
        "sl": "459",
        "village_code": "198138",
        "village_name": "Khabaspur",
        "latitude": "25.93362518",
        "longitude": "84.0198471"
    },
    {
        "sl": "460",
        "village_code": "198139",
        "village_name": "Pakdi",
        "latitude": "25.92920753",
        "longitude": "83.99629723"
    },
    {
        "sl": "461",
        "village_code": "198140",
        "village_name": "Dobhawa",
        "latitude": "25.92895028",
        "longitude": "84.02322774"
    },
    {
        "sl": "462",
        "village_code": "198141",
        "village_name": "Meulikanaspur",
        "latitude": "25.92368388",
        "longitude": "84.03307185"
    },
    {
        "sl": "463",
        "village_code": "198142",
        "village_name": "Januwan",
        "latitude": "25.97639669",
        "longitude": "84.05846953"
    },
    {
        "sl": "464",
        "village_code": "198143",
        "village_name": "Bankata",
        "latitude": "25.98366207",
        "longitude": "84.0695776"
    },
    {
        "sl": "465",
        "village_code": "198144",
        "village_name": "Koodiya",
        "latitude": "25.9732484",
        "longitude": "84.08121162"
    },
    {
        "sl": "466",
        "village_code": "198145",
        "village_name": "Babarapur",
        "latitude": "25.96476758",
        "longitude": "84.07953758"
    },
    {
        "sl": "467",
        "village_code": "198146",
        "village_name": "Khejuri",
        "latitude": "25.95781445",
        "longitude": "84.06520518"
    },
    {
        "sl": "468",
        "village_code": "198147",
        "village_name": "Bishar",
        "latitude": "25.94090586",
        "longitude": "84.0660459"
    },
    {
        "sl": "469",
        "village_code": "198148",
        "village_name": "Raxa Dannia",
        "latitude": "25.93087747",
        "longitude": "84.05020634"
    },
    {
        "sl": "470",
        "village_code": "198149",
        "village_name": "Kalyan Dehra",
        "latitude": "25.93108985",
        "longitude": "84.06762393"
    },
    {
        "sl": "471",
        "village_code": "198150",
        "village_name": "Araji Chak Amanat",
        "latitude": "25.95311792",
        "longitude": "84.07643263"
    },
    {
        "sl": "472",
        "village_code": "198151",
        "village_name": "Chak Ujiyari",
        "latitude": "25.94792554",
        "longitude": "84.07810907"
    },
    {
        "sl": "473",
        "village_code": "198152",
        "village_name": "Badasari",
        "latitude": "25.95525209",
        "longitude": "84.0900345"
    },
    {
        "sl": "474",
        "village_code": "198153",
        "village_name": "Godoura",
        "latitude": "25.95556841",
        "longitude": "84.10027356"
    },
    {
        "sl": "475",
        "village_code": "198154",
        "village_name": "Akhani",
        "latitude": "25.9427941",
        "longitude": "84.08766784"
    },
    {
        "sl": "476",
        "village_code": "198155",
        "village_name": "Khadasara",
        "latitude": "25.93228244",
        "longitude": "84.08905665"
    },
    {
        "sl": "477",
        "village_code": "198156",
        "village_name": "Durjanpur",
        "latitude": "25.92534419",
        "longitude": "84.06069426"
    },
    {
        "sl": "478",
        "village_code": "198157",
        "village_name": "Chawari",
        "latitude": "25.92189733",
        "longitude": "84.06303494"
    },
    {
        "sl": "479",
        "village_code": "198158",
        "village_name": "Sardahi",
        "latitude": "25.92269211",
        "longitude": "84.06979555"
    },
    {
        "sl": "480",
        "village_code": "198159",
        "village_name": "Ranjitpur",
        "latitude": "25.92212388",
        "longitude": "84.07456254"
    },
    {
        "sl": "481",
        "village_code": "198160",
        "village_name": "Haripur",
        "latitude": "25.920888",
        "longitude": "84.08383392"
    },
    {
        "sl": "482",
        "village_code": "198161",
        "village_name": "Rupwar Tawaef",
        "latitude": "25.92363948",
        "longitude": "84.0981629"
    },
    {
        "sl": "483",
        "village_code": "198162",
        "village_name": "Tarakol",
        "latitude": "26.02783892",
        "longitude": "84.09854446"
    },
    {
        "sl": "484",
        "village_code": "198163",
        "village_name": "Mustafabad",
        "latitude": "26.02775415",
        "longitude": "84.10414626"
    },
    {
        "sl": "485",
        "village_code": "198164",
        "village_name": "Patti Tara Kol",
        "latitude": "26.03247981",
        "longitude": "84.10653778"
    },
    {
        "sl": "486",
        "village_code": "198165",
        "village_name": "Kajipur",
        "latitude": "26.03716136",
        "longitude": "84.10655724"
    },
    {
        "sl": "487",
        "village_code": "198166",
        "village_name": "Chak Mohammad",
        "latitude": "26.03323837",
        "longitude": "84.11142697"
    },
    {
        "sl": "488",
        "village_code": "198167",
        "village_name": "Chak Dudhwallia",
        "latitude": "26.02883204",
        "longitude": "84.10972353"
    },
    {
        "sl": "489",
        "village_code": "198168",
        "village_name": "Kisunpura",
        "latitude": "26.03362682",
        "longitude": "84.11406154"
    },
    {
        "sl": "490",
        "village_code": "198169",
        "village_name": "Puru Shotim Patti",
        "latitude": "26.03692254",
        "longitude": "84.11747495"
    },
    {
        "sl": "491",
        "village_code": "198170",
        "village_name": "Jildapur",
        "latitude": "26.03984564",
        "longitude": "84.11749689"
    },
    {
        "sl": "492",
        "village_code": "198171",
        "village_name": "Kharid",
        "latitude": "26.04778637",
        "longitude": "84.11550546"
    },
    {
        "sl": "493",
        "village_code": "198172",
        "village_name": "Diyara Darauli",
        "latitude": "26.05287599",
        "longitude": "84.12650183"
    },
    {
        "sl": "494",
        "village_code": "198173",
        "village_name": "Bijulipur",
        "latitude": "26.0326201",
        "longitude": "84.12321146"
    },
    {
        "sl": "495",
        "village_code": "198174",
        "village_name": "Nipnnia",
        "latitude": "26.02064158",
        "longitude": "84.12966082"
    },
    {
        "sl": "496",
        "village_code": "198175",
        "village_name": "Diyara Harana Tar",
        "latitude": "26.04174128",
        "longitude": "84.13671948"
    },
    {
        "sl": "497",
        "village_code": "198176",
        "village_name": "Diyara Mahaji Kashi Datt",
        "latitude": "26.03452201",
        "longitude": "84.14115953"
    },
    {
        "sl": "498",
        "village_code": "198177",
        "village_name": "Asana",
        "latitude": "25.9992543",
        "longitude": "84.13326891"
    },
    {
        "sl": "499",
        "village_code": "198178",
        "village_name": "Sonu Pah",
        "latitude": "26.00068588",
        "longitude": "84.14015156"
    },
    {
        "sl": "500",
        "village_code": "198179",
        "village_name": "Letaraha",
        "latitude": "26.00633206",
        "longitude": "84.1451041"
    },
    {
        "sl": "501",
        "village_code": "198180",
        "village_name": "Pilue",
        "latitude": "25.98789792",
        "longitude": "84.1394337"
    },
    {
        "sl": "502",
        "village_code": "198181",
        "village_name": "Mahthapar",
        "latitude": "26.0194821",
        "longitude": "84.0996282"
    },
    {
        "sl": "503",
        "village_code": "198182",
        "village_name": "Dharampur",
        "latitude": "26.01815491",
        "longitude": "84.11109427"
    },
    {
        "sl": "504",
        "village_code": "198183",
        "village_name": "Sarkanda",
        "latitude": "26.02662635",
        "longitude": "84.1161182"
    },
    {
        "sl": "505",
        "village_code": "198184",
        "village_name": "Chandayar",
        "latitude": "26.01268132",
        "longitude": "84.12062446"
    },
    {
        "sl": "506",
        "village_code": "198185",
        "village_name": "Balupur",
        "latitude": "26.00317495",
        "longitude": "84.10952091"
    },
    {
        "sl": "507",
        "village_code": "198186",
        "village_name": "Bahdura",
        "latitude": "26.00794",
        "longitude": "84.132137"
    },
    {
        "sl": "508",
        "village_code": "198187",
        "village_name": "Gai Ghat",
        "latitude": "26.0127882",
        "longitude": "84.14594932"
    },
    {
        "sl": "509",
        "village_code": "198188",
        "village_name": "Fatehpur Noubrar",
        "latitude": "26.00330592",
        "longitude": "84.16387981"
    },
    {
        "sl": "510",
        "village_code": "198189",
        "village_name": "Fatehpur Khas",
        "latitude": "25.99410082",
        "longitude": "84.15273458"
    },
    {
        "sl": "511",
        "village_code": "198190",
        "village_name": "Hathouj",
        "latitude": "25.98090876",
        "longitude": "84.09559594"
    },
    {
        "sl": "512",
        "village_code": "198191",
        "village_name": "Dhuraudha",
        "latitude": "25.99295476",
        "longitude": "84.11670327"
    },
    {
        "sl": "513",
        "village_code": "198192",
        "village_name": "Dhanauti",
        "latitude": "25.99631651",
        "longitude": "84.12686311"
    },
    {
        "sl": "514",
        "village_code": "198193",
        "village_name": "Bhagipur",
        "latitude": "25.98273445",
        "longitude": "84.13031979"
    },
    {
        "sl": "515",
        "village_code": "198194",
        "village_name": "Chak Chhilu",
        "latitude": "25.9702893",
        "longitude": "84.13417725"
    },
    {
        "sl": "516",
        "village_code": "198195",
        "village_name": "Ajaour",
        "latitude": "25.97976292",
        "longitude": "84.11889594"
    },
    {
        "sl": "517",
        "village_code": "198196",
        "village_name": "Ajnera",
        "latitude": "25.96563479",
        "longitude": "84.11463661"
    },
    {
        "sl": "518",
        "village_code": "198197",
        "village_name": "Arjani Chak",
        "latitude": "25.96474611",
        "longitude": "84.1167075"
    },
    {
        "sl": "519",
        "village_code": "198198",
        "village_name": "Gokul Chak",
        "latitude": "25.95911679",
        "longitude": "84.11662761"
    },
    {
        "sl": "520",
        "village_code": "198199",
        "village_name": "Tika Chak",
        "latitude": "25.95592032",
        "longitude": "84.11812844"
    },
    {
        "sl": "521",
        "village_code": "198200",
        "village_name": "Payarepur",
        "latitude": "25.95567082",
        "longitude": "84.11217966"
    },
    {
        "sl": "522",
        "village_code": "198201",
        "village_name": "Ahirouli Jagir",
        "latitude": "25.95253055",
        "longitude": "84.10893397"
    },
    {
        "sl": "523",
        "village_code": "198202",
        "village_name": "Pranpur",
        "latitude": "25.94889814",
        "longitude": "84.11747777"
    },
    {
        "sl": "524",
        "village_code": "198203",
        "village_name": "Jigirsand",
        "latitude": "25.932527",
        "longitude": "84.11196708"
    },
    {
        "sl": "525",
        "village_code": "198204",
        "village_name": "Araji Mafi Jogia",
        "latitude": "25.92649766",
        "longitude": "84.12212809"
    },
    {
        "sl": "526",
        "village_code": "198205",
        "village_name": "Araji Mabi jigirsad",
        "latitude": "25.92078236",
        "longitude": "84.10669538"
    },
    {
        "sl": "527",
        "village_code": "198206",
        "village_name": "Kakra Baso Patti",
        "latitude": "25.98356212",
        "longitude": "83.80175034"
    },
    {
        "sl": "528",
        "village_code": "198207",
        "village_name": "Abdulpur Madari",
        "latitude": "26.00630988",
        "longitude": "83.82546537"
    },
    {
        "sl": "529",
        "village_code": "198208",
        "village_name": "Pal Chandraha",
        "latitude": "25.99771565",
        "longitude": "83.83264132"
    },
    {
        "sl": "530",
        "village_code": "198209",
        "village_name": "Veer Chandraha",
        "latitude": "25.99483286",
        "longitude": "83.82733068"
    },
    {
        "sl": "531",
        "village_code": "198210",
        "village_name": "Tari Bada Gaon",
        "latitude": "25.98747646",
        "longitude": "83.82698428"
    },
    {
        "sl": "532",
        "village_code": "198211",
        "village_name": "Bairhi",
        "latitude": "25.99274741",
        "longitude": "83.85606371"
    },
    {
        "sl": "533",
        "village_code": "198212",
        "village_name": "Parshurampur",
        "latitude": "25.98013596",
        "longitude": "83.85503602"
    },
    {
        "sl": "534",
        "village_code": "198213",
        "village_name": "Kharhari",
        "latitude": "25.99960445",
        "longitude": "83.86080032"
    },
    {
        "sl": "535",
        "village_code": "198214",
        "village_name": "Kothiya",
        "latitude": "25.9967493",
        "longitude": "83.87792855"
    },
    {
        "sl": "536",
        "village_code": "198215",
        "village_name": "Khempur",
        "latitude": "25.989567",
        "longitude": "83.87969728"
    },
    {
        "sl": "537",
        "village_code": "198216",
        "village_name": "Kotwari Pur",
        "latitude": "25.98467581",
        "longitude": "83.87457645"
    },
    {
        "sl": "538",
        "village_code": "198217",
        "village_name": "Padri",
        "latitude": "25.98939999",
        "longitude": "83.86539658"
    },
    {
        "sl": "539",
        "village_code": "198218",
        "village_name": "Cachiya",
        "latitude": "25.97677714",
        "longitude": "83.86719742"
    },
    {
        "sl": "540",
        "village_code": "198219",
        "village_name": "Bhandari",
        "latitude": "25.96777119",
        "longitude": "83.86734097"
    },
    {
        "sl": "541",
        "village_code": "198220",
        "village_name": "Sarai Chawat",
        "latitude": "25.95932339",
        "longitude": "83.86896529"
    },
    {
        "sl": "542",
        "village_code": "198221",
        "village_name": "Nagra",
        "latitude": "25.97089055",
        "longitude": "83.88487057"
    },
    {
        "sl": "543",
        "village_code": "198222",
        "village_name": "Duma Dand",
        "latitude": "25.98090897",
        "longitude": "83.89301531"
    },
    {
        "sl": "544",
        "village_code": "198223",
        "village_name": "Bhit Kuna",
        "latitude": "25.97123043",
        "longitude": "83.89194464"
    },
    {
        "sl": "545",
        "village_code": "198224",
        "village_name": "Gauritar",
        "latitude": "25.96956252",
        "longitude": "83.90380643"
    },
    {
        "sl": "546",
        "village_code": "198225",
        "village_name": "Nikasi",
        "latitude": "25.96351373",
        "longitude": "83.79977629"
    },
    {
        "sl": "547",
        "village_code": "198226",
        "village_name": "Malaphar Senpur",
        "latitude": "25.97002248",
        "longitude": "83.82787134"
    },
    {
        "sl": "548",
        "village_code": "198227",
        "village_name": "Jagdishpur",
        "latitude": "25.96815683",
        "longitude": "83.83909032"
    },
    {
        "sl": "549",
        "village_code": "198228",
        "village_name": "Deodhia",
        "latitude": "25.96483639",
        "longitude": "83.85446329"
    },
    {
        "sl": "550",
        "village_code": "198229",
        "village_name": "Sarai Ark",
        "latitude": "25.9558956",
        "longitude": "83.84750284"
    },
    {
        "sl": "551",
        "village_code": "198230",
        "village_name": "Tiyara Haiderpur",
        "latitude": "25.94926124",
        "longitude": "83.82659423"
    },
    {
        "sl": "552",
        "village_code": "198231",
        "village_name": "Autrouli Karmouta",
        "latitude": "25.94096042",
        "longitude": "83.8004524"
    },
    {
        "sl": "553",
        "village_code": "198232",
        "village_name": "Targouli",
        "latitude": "25.9299563",
        "longitude": "83.818479"
    },
    {
        "sl": "554",
        "village_code": "198233",
        "village_name": "Ewati",
        "latitude": "25.93900115",
        "longitude": "83.83631546"
    },
    {
        "sl": "555",
        "village_code": "198234",
        "village_name": "Pandepur",
        "latitude": "25.95437429",
        "longitude": "83.85941699"
    },
    {
        "sl": "556",
        "village_code": "198235",
        "village_name": "Sonapali",
        "latitude": "25.94784978",
        "longitude": "83.85365321"
    },
    {
        "sl": "557",
        "village_code": "198236",
        "village_name": "Kodaee",
        "latitude": "25.943809",
        "longitude": "83.86702054"
    },
    {
        "sl": "558",
        "village_code": "198237",
        "village_name": "Raghunathpur",
        "latitude": "25.93386705",
        "longitude": "83.8723017"
    },
    {
        "sl": "559",
        "village_code": "198238",
        "village_name": "Kharuaon",
        "latitude": "25.92865405",
        "longitude": "83.85075551"
    },
    {
        "sl": "560",
        "village_code": "198239",
        "village_name": "Siswar Kala",
        "latitude": "25.91874916",
        "longitude": "83.88105111"
    },
    {
        "sl": "561",
        "village_code": "198240",
        "village_name": "Rekuanasirpur",
        "latitude": "25.94792997",
        "longitude": "83.89197192"
    },
    {
        "sl": "562",
        "village_code": "198241",
        "village_name": "Uraini",
        "latitude": "25.94841359",
        "longitude": "83.87906065"
    },
    {
        "sl": "563",
        "village_code": "198242",
        "village_name": "Khira Nisfi",
        "latitude": "25.93542738",
        "longitude": "83.88671813"
    },
    {
        "sl": "564",
        "village_code": "198243",
        "village_name": "Khanwar Navada",
        "latitude": "25.92657607",
        "longitude": "83.90207506"
    },
    {
        "sl": "565",
        "village_code": "198244",
        "village_name": "Arazi English",
        "latitude": "25.91638589",
        "longitude": "83.89855522"
    },
    {
        "sl": "566",
        "village_code": "198245",
        "village_name": "Sonari",
        "latitude": "25.94394305",
        "longitude": "83.90268318"
    },
    {
        "sl": "567",
        "village_code": "198246",
        "village_name": "Gothwa 322",
        "latitude": "25.9496426",
        "longitude": "83.91163469"
    },